[
    {
        "id": "1113",
        "name": "珠海富华里反斗乐园",
        "location": {
            "lng": "113.548129",
            "lat": "22.240309"
        }
    },
    {
        "id": "1080",
        "name": "风云再起正洪大厦店",
        "location": {
            "lng": "118.792582",
            "lat": "32.046289"
        }
    },
    {
        "id": "1019",
        "name": "风云再起天津和平路店",
        "location": {
            "lng": "117.200041",
            "lat": "39.137436"
        }
    },
    {
        "id": "1188",
        "name": "福州东二环星际传奇",
        "location": {
            "lng": "119.343557",
            "lat": "26.097124"
        }
    },
    {
        "id": "1010",
        "name": "城市英雄衡阳解放路店",
        "location": {
            "lng": "112.618784",
            "lat": "26.902702"
        }
    },
    {
        "id": "1194",
        "name": "量子攻略北京龙湖天街店",
        "location": {
            "lng": "116.327271",
            "lat": "39.691519"
        }
    },
    {
        "id": "1197",
        "name": "风云再起辽宁沈阳恒隆广场店",
        "location": {
            "lng": "123.462478",
            "lat": "41.809082"
        }
    },
    {
        "id": "1081",
        "name": "城市英雄步步高店",
        "location": {
            "lng": "113.116574",
            "lat": "29.377831"
        }
    },
    {
        "id": "1059",
        "name": "汤姆熊大连罗斯福店",
        "location": {
            "lng": "121.59333",
            "lat": "38.91862"
        }
    },
    {
        "id": "1072",
        "name": "三亚金润阳光南梦园",
        "location": {
            "lng": "109.514461",
            "lat": "18.257011"
        }
    },
    {
        "id": "1155",
        "name": "城市英雄常州天宁吾悦广场店",
        "location": {
            "lng": "120.016311",
            "lat": "31.771203"
        }
    },
    {
        "id": "1167",
        "name": "城市英雄天津津南吾悦广场店",
        "location": {
            "lng": "117.381198",
            "lat": "38.985855"
        }
    },
    {
        "id": "1002",
        "name": "环游嘉年华新大新店",
        "location": {
            "lng": "113.369305",
            "lat": "22.947195"
        }
    },
    {
        "id": "1071",
        "name": "环游嘉年华江门店",
        "location": {
            "lng": "113.088737",
            "lat": "22.617469"
        }
    },
    {
        "id": "1075",
        "name": "城市英雄星沙吾悦店",
        "location": {
            "lng": "113.108868",
            "lat": "28.259254"
        }
    },
    {
        "id": "1186",
        "name": "长沙市芙蓉区偶予电子游艺厅",
        "location": {
            "lng": "113.038133",
            "lat": "28.196593"
        }
    },
    {
        "id": "1206",
        "name": "世纪华联弘哲动漫城",
        "location": {
            "lng": "113.935356",
            "lat": "35.28547"
        }
    },
    {
        "id": "1207",
        "name": "乐满堂电玩常州武进吾悅广场店",
        "location": {
            "lng": "119.94848",
            "lat": "31.733085"
        }
    },
    {
        "id": "1204",
        "name": "汤姆熊天津恒隆广场店",
        "location": {
            "lng": "117.208074",
            "lat": "39.133359"
        }
    },
    {
        "id": "1217",
        "name": "环游嘉年华广州黄埔中新店",
        "location": {
            "lng": "113.555814",
            "lat": "23.330183"
        }
    }
]
